City_ID,City,Country,Lat,Lng,Max Temp,Humidity,Cloudiness,Wind Speed,Current Description
0,Inirida,CO,3.8653,-67.9239,77.49,88,48,2.06,scattered clouds
1,Polyarnyy,RU,69.1989,33.4478,37.89,99,100,6.87,overcast clouds
2,Chicoana,AR,-25.1009,-65.5331,61.05,74,6,3.42,clear sky
3,Whitehorse,CA,60.7161,-135.0538,57.97,41,100,19.57,overcast clouds
4,Edson,CA,53.5835,-116.4356,71.74,28,0,6.91,clear sky
5,Isafjordur,IS,66.0755,-23.124,41.29,93,97,11.32,overcast clouds
6,Queenstown,ZA,-31.8976,26.8753,49.32,90,100,2.15,light rain
7,Bogale,MM,16.2833,95.4,79.27,89,100,8.61,overcast clouds
8,Qaqortoq,GL,60.7167,-46.0333,31.82,87,84,8.63,broken clouds
9,Nema,RU,57.5067,50.5011,50.4,61,35,4.43,scattered clouds
10,Grytviken,GS,-54.2811,-36.5092,29.12,86,89,10.89,overcast clouds
11,Utrik,MH,11.2278,169.8474,81.03,80,96,15.55,overcast clouds
12,Chonchi,CL,-42.6128,-73.8092,55.11,99,100,1.97,overcast clouds
13,Port-Aux-Francais,TF,-49.35,70.2167,39.52,76,100,17.29,light rain
14,As Sulayyil,SA,20.4607,45.5779,84.45,18,2,6.38,clear sky
15,Margaret River,AU,-33.95,115.0667,60.13,74,30,14.94,scattered clouds
16,Tazovsky,RU,67.4667,78.7,-1.98,99,87,6.06,overcast clouds
17,Mikomeseng,GQ,2.1361,10.6132,70.11,99,67,0.83,light rain
18,Puerto Ayora,EC,-0.7393,-90.3518,85.96,92,32,5.01,scattered clouds
19,Jiagedaqi,CN,50.4167,124.1167,44.76,72,98,6.46,overcast clouds
20,Puerto Baquerizo Moreno,EC,-0.9,-89.6,79.79,94,75,9.22,light intensity drizzle rain
21,Iskateley,RU,67.6803,53.1512,33.39,99,100,7.78,overcast clouds
22,Ribeira Grande,PT,38.5167,-28.7,63.77,86,100,1.99,overcast clouds
23,Geraldton,AU,-28.7667,114.6,57.61,88,75,6.91,broken clouds
24,Hadibu,YE,12.65,54.0333,83.19,77,20,3.71,few clouds
25,Miles City,US,46.4083,-105.8406,58.17,77,100,21.85,overcast clouds
26,Hamilton,US,39.1834,-84.5333,72.59,88,100,11.5,mist
27,Waitangi,NZ,-43.9535,-176.5597,52.83,77,98,5.01,overcast clouds
28,Tokmak,UA,47.2514,35.7058,48.6,69,91,8.21,overcast clouds
29,Nar'Yan-Mar,RU,67.6713,53.087,33.53,99,100,8.01,overcast clouds
30,West Island,CC,-12.1568,96.8225,78.78,89,100,12.66,shower rain
31,Blackmans Bay,AU,-43.0167,147.3167,48.52,82,100,4.7,overcast clouds
32,Quatre Cocos,MU,-20.2078,57.7625,77.11,80,61,12.01,light rain
33,Avarua,CK,-21.2078,-159.775,82.45,74,75,23.02,broken clouds
34,Kodiak,US,57.79,-152.4072,45.91,76,100,14.97,moderate rain
35,Punta Arenas,CL,-53.15,-70.9167,35.71,69,0,9.22,clear sky
36,Ilulissat,GL,69.2167,-51.1,30.22,64,100,5.75,overcast clouds
37,Albany,US,42.6001,-73.9662,79.45,65,78,8.03,broken clouds
38,Guerrero Negro,MX,27.9769,-114.0611,64.33,63,16,20.8,few clouds
39,Dwarka,IN,22.2394,68.9678,83.08,76,0,11.83,clear sky
40,Yellowknife,CA,62.456,-114.3525,64.92,45,75,10.36,broken clouds
41,Decorah,US,43.3033,-91.7857,63.52,100,100,17.27,overcast clouds
42,Suoyarvi,RU,62.0833,32.35,47.71,85,58,6.8,broken clouds
43,Adamstown,PN,-25.066,-130.1015,72.41,64,100,21.74,overcast clouds
44,San Antonio De Pale,GQ,-1.4014,5.6325,82.58,80,75,12.12,broken clouds
45,Port Mathurin,MU,-19.6833,63.4167,77.07,79,23,15.97,light rain
46,Uliastay,MN,47.7417,96.8444,46.26,58,58,2.51,broken clouds
47,Acapulco De Juarez,MX,16.8634,-99.8901,87.62,62,75,3.44,broken clouds
48,Kapa'A,US,22.0752,-159.319,80.58,75,100,8.05,light rain
49,Puerto Natales,CL,-51.7236,-72.4875,38.64,93,98,3.13,overcast clouds
50,Lihue,US,21.9789,-159.3672,79.84,75,100,8.05,light rain
51,Wailua Homesteads,US,22.0669,-159.378,79.23,75,100,8.05,light rain
52,Nur-Sultan,KZ,51.1801,71.446,44.55,53,0,11.18,clear sky
53,Bredasdorp,ZA,-34.5322,20.0403,54.03,75,29,13.94,light rain
54,Jamestown,US,42.097,-79.2353,74.79,38,0,10.36,clear sky
55,Invercargill,NZ,-46.4,168.35,47.01,95,83,3.0,broken clouds
56,Bethel,US,41.3712,-73.414,84.29,23,0,8.05,clear sky
57,Kirakira,SB,-10.4544,161.9205,82.51,82,96,10.04,overcast clouds
58,Aver-O-Mar,PT,41.4078,-8.7812,59.07,72,0,11.5,clear sky
59,Flying Fish Cove,CX,-10.4217,105.6791,80.28,83,75,16.11,broken clouds
60,College,US,64.8569,-147.8028,64.09,36,40,6.91,scattered clouds
61,Kununurra,AU,-15.7667,128.7333,62.58,59,74,4.61,broken clouds
62,Enewetak,MH,11.3474,162.3373,82.13,82,35,16.08,scattered clouds
63,Pisco,PE,-13.7,-76.2167,71.65,73,75,4.61,broken clouds
64,Kayenta,US,36.7278,-110.2546,69.58,22,83,6.96,broken clouds
65,Narrabri,AU,-30.3167,149.7833,63.68,43,4,2.93,clear sky
66,Saipan,MP,15.1355,145.701,84.65,100,0,8.01,clear sky
67,Sesheke,ZM,-17.4759,24.2968,60.26,48,3,4.7,clear sky
68,Codrington,AU,-38.2667,141.9667,49.05,80,5,5.19,clear sky
69,Tosontsengel,MN,48.7567,98.2839,43.63,72,84,5.3,broken clouds
70,Talnakh,RU,69.4865,88.3972,-2.13,89,60,1.77,broken clouds
71,Udachny,RU,66.4167,112.4,26.46,92,100,14.54,light snow
72,Usinsk,RU,65.9939,57.5281,33.91,100,100,5.57,overcast clouds
73,Burang,CN,30.25,81.1667,28.11,54,3,0.85,clear sky
74,Kayangel,PW,8.0823,134.7173,83.19,75,29,5.06,scattered clouds
75,Taltal,CL,-25.4,-70.4833,63.41,79,24,1.92,few clouds
76,Badger,US,64.8,-147.5333,64.0,36,75,6.91,broken clouds
77,Arraial Do Cabo,BR,-22.9661,-42.0278,71.46,73,20,14.97,few clouds
78,Olinda,BR,-8.0089,-34.8553,82.13,65,20,6.91,few clouds
79,Antsiranana,MG,-12.2787,49.2917,75.2,86,23,10.71,few clouds
80,Sur,OM,22.5667,59.5289,90.54,44,0,14.14,clear sky
81,Toliara,MG,-23.35,43.6667,71.19,82,0,6.08,clear sky
82,Afaahiti,PF,-17.75,-149.2833,84.07,76,74,17.98,broken clouds
83,Lebu,CL,-37.6167,-73.65,56.26,98,100,6.87,overcast clouds
84,Kundiawa,PG,-6.0167,144.9667,72.03,80,62,0.89,broken clouds
85,Kanggye,KP,40.9695,126.5852,60.4,52,57,2.53,broken clouds
86,Haiku-Pauwela,US,20.9219,-156.3051,86.02,55,20,14.97,few clouds
87,Papatowai,NZ,-46.5619,169.4708,53.15,82,81,6.87,broken clouds
88,Mushie,CD,-3.0167,16.9,73.72,97,99,3.51,moderate rain
89,Hithadhoo,MV,-0.6,73.0833,82.58,76,100,13.82,overcast clouds
90,Bilibino,RU,68.0546,166.4372,21.54,92,100,6.49,snow
91,Pemba,MZ,-12.974,40.5178,79.5,89,20,4.61,few clouds
92,Tolanaro,MG,-25.0319,46.9987,73.47,88,40,4.61,scattered clouds
93,Mossel Bay,ZA,-34.1831,22.146,53.53,63,84,19.57,light rain
94,Kokoda,PG,-8.8785,147.7407,81.09,82,100,0.43,overcast clouds
95,Tobol,KZ,52.6844,62.5794,47.35,77,62,7.07,broken clouds
96,Powell,US,40.1578,-83.0752,78.21,73,75,6.91,light rain
97,Revelstoke,CA,50.9832,-118.2023,80.62,16,0,2.3,clear sky
98,Taoudenni,ML,22.6783,-3.9836,94.64,9,0,5.44,clear sky
99,Las Tablas,PA,7.7667,-80.2833,84.18,99,100,6.24,overcast clouds
100,Hotan,CN,37.0997,79.9269,64.92,9,100,2.44,overcast clouds
101,Menongue,AO,-14.6585,17.691,57.97,52,5,4.12,clear sky
102,Edinburgh Of The Seven Seas,SH,-37.0676,-12.3116,64.78,93,100,31.14,light rain
103,Urzhar,KZ,47.093,81.6294,62.38,50,35,3.02,scattered clouds
104,Uzgen,KG,40.7699,73.3007,61.09,78,99,5.46,overcast clouds
105,Beidao,CN,34.5686,105.8933,55.9,62,91,3.27,overcast clouds
106,Northam,GB,51.0333,-4.2167,54.61,79,59,9.98,broken clouds
107,Iqaluit,CA,63.7506,-68.5145,28.13,74,100,8.05,overcast clouds
108,Ushuaia,AR,-54.8,-68.3,37.06,70,20,14.97,few clouds
109,Dabou,CI,5.3256,-4.3769,81.37,84,96,8.57,overcast clouds
110,Thompson,CA,55.7435,-97.8558,64.56,25,20,8.05,few clouds
111,Olonkinbyen,SJ,70.9221,-8.7187,34.34,99,100,12.91,snow
112,Vorotynets,RU,56.0603,45.8633,48.11,89,75,4.41,broken clouds
113,Nieuw Amsterdam,SR,5.8833,-55.0833,80.02,90,40,0.0,scattered clouds
114,Eydhafushi,MV,5.1033,73.0708,78.58,88,100,14.72,overcast clouds
115,Vilyuchinsk,RU,52.9306,158.4028,48.47,74,97,6.6,overcast clouds
116,Pastavy,BY,55.1168,26.8326,51.85,68,68,5.14,broken clouds
117,Kudahuvadhoo,MV,2.6708,72.8944,81.66,81,85,18.88,overcast clouds
118,Christchurch,NZ,-43.5333,172.6333,52.41,93,100,2.3,overcast clouds
119,Severo-Yeniseyskiy,RU,60.3725,93.0408,14.77,89,100,8.03,overcast clouds
120,Hammerfest,NO,70.6634,23.6821,43.25,93,75,5.75,broken clouds
121,Alofi,NU,-19.0595,-169.9187,82.29,69,26,6.91,scattered clouds
122,Garachico,ES,28.7781,-17.7646,66.31,64,100,18.41,overcast clouds
123,Bac Lieu,VN,9.285,105.7244,83.59,75,97,4.32,overcast clouds
124,Biltine,TD,14.5333,20.9167,91.22,28,82,3.91,broken clouds
125,Kerman,IR,30.2832,57.0788,58.86,25,0,6.91,clear sky
126,Sydney,AU,-33.8679,151.2073,59.77,84,20,8.05,light rain
127,Aral,CN,40.5156,81.2636,66.11,8,88,6.4,overcast clouds
128,Shitanjing,CN,39.2342,106.3439,59.94,22,12,6.98,few clouds
129,Tiksi,RU,71.6872,128.8694,10.2,87,16,4.99,few clouds
130,Weno,FM,7.4515,151.8468,84.15,89,100,3.44,overcast clouds
131,Kyzyl-Mazhalyk,RU,51.1333,90.6,44.8,75,99,1.36,overcast clouds
132,Mitchell,US,43.7094,-98.0298,73.38,70,75,19.57,broken clouds
133,Ulanhot,CN,46.0833,122.0833,60.28,30,31,15.93,scattered clouds
134,Lorengau,PG,-2.0226,147.2712,80.92,83,100,1.97,overcast clouds
135,Klyuchi,RU,52.2667,79.1667,47.1,53,100,8.59,overcast clouds
136,Aasiaat,GL,68.7098,-52.8699,26.82,81,100,7.96,overcast clouds
137,Ketchikan,US,55.3422,-131.6461,53.58,87,100,11.5,mist
138,Ranau,MY,5.9538,116.6641,73.15,92,94,0.51,overcast clouds
139,Moundou,TD,8.5667,16.0833,84.15,56,96,4.97,overcast clouds
140,Touros,BR,-5.1989,-35.4608,77.32,87,98,9.44,light rain
141,Knyaze-Volkonskoye,RU,48.4642,135.4567,59.34,47,100,12.77,overcast clouds
142,Plainview,US,40.7765,-73.4673,85.48,53,0,11.5,clear sky
143,Villa Canas,AR,-34.0057,-61.6076,64.92,10,26,7.45,scattered clouds
144,Namtsy,RU,62.7161,129.6658,39.0,49,99,7.4,overcast clouds
145,Stanley,GB,54.868,-1.6985,45.79,88,75,3.44,broken clouds
146,Mbandaka,CD,0.0487,18.2603,70.59,97,100,1.81,overcast clouds
147,Port Elizabeth,ZA,-33.918,25.5701,56.32,99,100,4.61,light rain
148,Santa Sylvina,AR,-27.8326,-61.1375,63.05,64,28,6.35,scattered clouds
149,Comodoro Rivadavia,AR,-45.8667,-67.5,57.06,41,0,3.44,clear sky
150,Uturoa,PF,-16.7333,-151.4333,78.64,81,17,13.58,moderate rain
151,Carnarvon,AU,-24.8667,113.6333,68.97,73,5,14.72,clear sky
152,Robore,BO,-18.3333,-59.75,68.95,60,100,3.65,overcast clouds
153,Merizo Village,GU,13.2658,144.6691,86.99,89,93,7.54,overcast clouds
154,Susuman,RU,62.7833,148.1667,28.36,89,100,5.95,light snow
155,Aioun,MR,16.6614,-9.6149,95.9,10,44,7.83,scattered clouds
156,Labytnangi,RU,66.6572,66.4183,21.7,96,100,4.45,light snow
157,Baiyin,CN,36.5583,104.2081,54.5,43,0,10.31,clear sky
158,La Ronge,CA,55.1001,-105.2842,71.82,12,75,8.05,broken clouds
159,Umm Kaddadah,SD,13.6017,26.6876,87.73,15,54,17.05,broken clouds
160,Yung Shue Wan,HK,22.2333,114.1167,74.68,81,98,1.01,overcast clouds
161,St. John'S,CA,47.5649,-52.7093,43.16,67,40,9.22,scattered clouds
162,Karkira,DZ,36.9292,6.5856,61.81,94,93,2.73,light rain
163,Qarauyl,KZ,48.9451,79.255,49.32,69,58,2.75,broken clouds
164,Alice Springs,AU,-23.7,133.8833,44.15,65,0,3.44,clear sky
165,Saint-Philippe,RE,-21.3585,55.7679,72.99,82,85,9.06,overcast clouds
166,Nemuro,JP,43.3236,145.575,45.73,75,0,7.14,clear sky
167,Say,NE,13.1007,2.3689,86.56,56,100,9.31,overcast clouds
168,Fale Old Settlement,TK,-9.3852,-171.2468,83.75,75,18,11.34,few clouds
169,Luderitz,NA,-26.6481,15.1594,55.65,65,3,21.34,clear sky
170,Bengkulu,ID,-3.8004,102.2655,77.0,83,83,4.23,broken clouds
171,Anadyr,RU,64.75,177.4833,28.9,92,20,4.47,fog
172,Chibougamau,CA,49.9168,-74.3659,47.82,61,100,14.97,overcast clouds
173,Ulladulla,AU,-35.35,150.4667,58.28,75,43,3.2,scattered clouds
174,Narok,KE,-1.0783,35.8601,55.58,95,45,5.39,scattered clouds
175,Lycksele,SE,64.5954,18.6735,40.87,81,100,0.0,overcast clouds
176,Isangel,VU,-19.55,169.2667,78.91,94,100,5.75,overcast clouds
177,Vilyuysk,RU,63.7553,121.6247,39.09,61,100,4.38,overcast clouds
178,Glendive,US,47.1053,-104.7125,56.82,94,100,16.11,overcast clouds
179,Rongelap,MH,11.1635,166.8941,81.66,81,91,16.31,overcast clouds
180,Atafu Village,TK,-8.5421,-172.5159,83.91,77,15,10.51,few clouds
181,Nuuk,GL,64.1835,-51.7216,34.41,86,100,9.22,overcast clouds
182,Djambala,CG,-2.5447,14.7533,71.47,84,45,1.01,scattered clouds
183,Hawaiian Paradise Park,US,19.5933,-154.9731,80.11,73,0,10.36,clear sky
184,Petropavlovsk-Kamchatsky,RU,53.0452,158.6483,46.99,49,75,15.66,broken clouds
185,Agadez,NE,19.75,10.25,82.33,17,73,5.46,broken clouds
186,Lethbridge,CA,49.7,-112.8186,70.29,37,40,2.3,scattered clouds
187,Argo,GR,37.6333,22.7333,59.79,93,86,0.58,overcast clouds
188,Vila Franca Do Campo,PT,37.7167,-25.4333,64.81,92,14,6.06,few clouds
189,Kone,NC,-21.0595,164.8658,77.68,56,85,7.99,overcast clouds
190,Westport,US,41.1415,-73.3579,83.93,51,0,13.8,clear sky
191,North Ward,AU,-19.2454,146.8075,75.11,64,41,9.22,scattered clouds
192,Vadso,NO,70.0744,29.7487,43.68,81,75,5.75,broken clouds
193,El Calafate,AR,-50.3408,-72.2768,40.95,82,28,0.67,scattered clouds
194,Robertsport,LR,6.7533,-11.3686,81.64,83,100,4.05,light rain
195,Praia Da Vitoria,PT,38.7333,-27.0667,64.65,88,75,8.32,broken clouds
196,El Granada,US,37.5027,-122.4694,82.92,71,20,23.02,few clouds
197,Ca Mau,VN,9.1769,105.15,80.06,87,95,3.2,overcast clouds
198,Ust'-Barguzin,RU,53.45,108.9833,36.37,95,100,2.62,light rain
199,Lompoc,US,34.6391,-120.4579,78.69,72,40,17.0,scattered clouds
200,Vila Velha,BR,-20.3297,-40.2925,73.35,83,75,6.91,broken clouds
201,Kartarpur,IN,31.44,75.4997,77.97,12,0,4.54,clear sky
202,Dalandzadgad,MN,43.5708,104.425,57.72,22,14,4.18,few clouds
203,Takoradi,GH,4.8845,-1.7554,80.94,84,88,7.0,overcast clouds
204,Charlottetown,CA,46.2352,-63.1267,66.49,46,75,14.97,broken clouds
205,Nantucket,US,41.2835,-70.0995,73.51,74,75,16.11,broken clouds
206,Mishkovo-Pohorilove,UA,46.9995,32.118,56.01,55,99,6.69,overcast clouds
207,Jwaneng,BW,-24.6004,24.7303,61.68,32,100,8.88,overcast clouds
208,Mabaruma,GY,8.2,-59.7833,73.45,94,100,2.93,overcast clouds
209,Westerland,DE,54.9079,8.3033,57.22,58,4,11.5,clear sky
210,Kikwit,CD,-5.041,18.8162,75.7,79,100,1.43,overcast clouds
211,Arno,SE,60.1167,18.6333,48.45,57,28,6.67,scattered clouds
212,Tarawa,KI,1.419,172.984,86.09,74,40,8.05,light rain
213,Nova Sintra,CV,14.8667,-24.7167,67.93,83,4,20.2,clear sky
214,Constantia,RO,44.1833,28.65,52.48,59,75,6.82,broken clouds
215,Gadzhiyevo,RU,69.2551,33.3362,37.13,100,100,7.58,overcast clouds
216,Gumdag,TM,39.2061,54.5906,71.15,48,0,3.8,clear sky
217,Kavieng,PG,-2.5744,150.7967,79.57,89,100,12.75,moderate rain
218,Bardai,NG,11.65,7.2333,84.74,36,58,1.7,broken clouds
219,Liwale,TZ,-9.7667,37.9333,66.63,92,17,0.98,few clouds
220,Zhalantun,CN,48.0,122.7167,50.83,78,100,9.98,overcast clouds
221,Mariental,NA,-24.6333,17.9667,67.06,26,65,6.06,broken clouds
222,Gao,ML,16.6362,1.637,84.9,43,87,11.54,overcast clouds
223,Ust-Nera,RU,64.5667,143.2,32.13,62,100,6.96,overcast clouds
224,Zaragoza,ES,41.6561,-0.8773,54.05,69,0,19.57,clear sky
225,Hasaki,JP,35.7333,140.8333,64.8,66,100,12.26,light rain
226,Valparaiso,CL,-33.0393,-71.6273,83.84,42,0,18.41,clear sky
227,Humaita,BR,-7.5061,-63.0208,80.11,75,95,2.51,overcast clouds
228,Bikenibeu Village,KI,1.3673,173.1241,85.96,74,40,8.05,light rain
229,Cururupu,BR,-1.8283,-44.8683,74.66,97,69,2.77,broken clouds
230,Longyearbyen,SJ,78.2186,15.6401,22.84,74,75,14.97,light snow
231,Kapuskasing,CA,49.4169,-82.4331,68.0,24,20,14.97,few clouds
232,Marsa Alam,EG,25.0757,34.8918,80.64,44,0,14.25,clear sky
233,Tual,ID,-5.6667,132.75,82.6,80,97,17.76,overcast clouds
234,Cole Harbour,CA,44.6724,-63.4751,50.18,86,84,11.5,broken clouds
235,Grajau,BR,-5.8194,-46.1386,77.56,78,85,1.25,overcast clouds
236,Horta,PT,38.5333,-28.6333,63.01,86,100,1.99,overcast clouds
237,Bubaque,GW,11.2833,-15.8333,78.85,74,13,13.98,few clouds
238,Korla,CN,41.7597,86.1469,67.05,19,92,4.16,overcast clouds
239,Kuraymah,SD,18.55,31.85,89.55,15,31,13.78,scattered clouds
240,Tazacorte,ES,28.629,-17.9293,68.97,90,100,18.41,overcast clouds
241,Gazojak,TM,41.1875,61.4036,77.72,29,15,6.46,few clouds
242,Dudinka,RU,69.4058,86.1778,-1.17,100,98,2.55,overcast clouds
243,Marcala,HN,14.15,-88.0333,74.68,89,95,1.03,overcast clouds
244,Tahe,CN,52.3333,124.7333,39.61,60,21,7.47,few clouds
245,Pankovka,RU,58.5,31.1999,47.32,61,29,6.29,scattered clouds
246,Kostanjevica Na Krki,SI,45.8461,15.4222,54.66,97,100,3.44,drizzle
247,Sirte,LY,31.2089,16.5887,71.64,44,1,17.49,clear sky
248,Dongola,SD,19.1667,30.4833,87.44,17,16,17.83,few clouds
249,Inari,FI,68.906,27.0288,41.2,85,97,2.77,overcast clouds
250,Sodra Sandby,SE,56.5667,16.6167,48.88,70,26,5.12,scattered clouds
251,Guarapari,BR,-20.6667,-40.4975,72.9,87,100,8.9,overcast clouds
252,Tromso,NO,69.6496,18.957,43.38,87,75,11.5,light intensity drizzle
253,Eureka,US,40.8021,-124.1637,78.67,83,12,8.01,few clouds
254,New Norfolk,AU,-42.7826,147.0587,50.72,68,99,1.99,light rain
255,Petoskey,US,45.3733,-84.9553,74.82,46,100,8.05,overcast clouds
256,Kuta,ID,-8.7233,115.1723,78.75,88,75,11.99,broken clouds
257,Gutao,CN,37.2025,112.1781,61.29,29,0,1.39,clear sky
258,Happy Valley-Goose Bay,CA,53.3168,-60.3315,68.31,21,75,11.5,broken clouds
259,Teknaf,BD,20.8624,92.3058,75.15,92,100,7.56,moderate rain
260,Ta`U,AS,-14.2336,-169.5144,81.64,77,20,10.31,few clouds
261,San Patricio,US,28.017,-97.5169,86.72,75,21,20.74,few clouds
262,Lewiston,US,44.1003,-70.2148,78.98,46,0,10.36,clear sky
263,Namibe,AO,-15.1961,12.1522,71.22,79,82,5.61,broken clouds
264,Moberly,US,39.4184,-92.4382,80.92,65,96,1.99,overcast clouds
265,Malampaka,TZ,-3.1333,33.5333,66.67,75,75,4.97,broken clouds
266,Mananjary,MG,-21.2167,48.3333,72.99,90,100,2.39,overcast clouds
267,Hamlet,US,34.8849,-79.6942,84.76,34,0,8.05,clear sky
268,Qui Nhon,VN,13.7667,109.2333,78.94,89,100,2.26,overcast clouds
269,Ak-Dovurak,RU,51.1833,90.6,45.21,70,99,0.47,overcast clouds
270,Kem',RU,64.9555,34.5793,42.89,86,55,8.08,broken clouds
271,Luanda,AO,-8.8368,13.2343,80.6,83,20,6.91,few clouds
272,Smithers,CA,54.7804,-127.1743,66.52,32,100,11.5,overcast clouds
273,Puerto Varas,CL,-41.3195,-72.9854,59.22,100,100,9.22,light intensity drizzle
274,Boa Vista,BR,2.8197,-60.6733,82.38,74,75,5.75,thunderstorm
275,Sarmiento,AR,-45.5882,-69.07,55.17,57,100,5.77,overcast clouds
276,Bargaal,SO,11.2864,51.0773,82.51,84,18,5.59,few clouds
277,Karachev,RU,53.1229,34.9852,47.82,89,97,6.4,overcast clouds
278,Magadan,RU,59.5667,150.8,34.63,85,39,4.74,scattered clouds
279,Irtyshsk,KZ,53.3333,75.4572,46.09,41,100,8.57,overcast clouds
280,Volzhskiy,RU,48.7858,44.7797,44.11,65,0,4.76,clear sky
281,Smidovich,RU,48.6,133.8167,59.02,50,100,14.09,overcast clouds
282,Port Alfred,ZA,-33.5906,26.891,57.18,91,100,1.01,light rain
283,Pyt-Yakh,RU,60.7499,72.8582,29.05,68,99,5.23,overcast clouds
284,Holualoa,US,19.6228,-155.9522,75.56,85,54,3.0,broken clouds
285,Kihangara,TZ,-2.5833,33.35,68.97,79,81,4.68,broken clouds
286,Mount Isa,AU,-20.7333,139.5,67.77,49,0,8.05,clear sky
287,Vorkuta,RU,67.5,64.0,23.79,95,87,5.23,overcast clouds
288,Waterloo,CA,43.4668,-80.5164,77.49,41,40,6.91,scattered clouds
289,Tabou,CI,4.423,-7.3528,80.83,85,92,5.88,overcast clouds
290,Minas De Marcona,PE,-15.2119,-75.1103,61.25,77,7,8.97,clear sky
291,Mennzel Bou Zelfa,TN,36.6831,10.5843,65.68,92,100,9.33,overcast clouds
292,Newman,US,37.3138,-121.0208,86.34,31,35,7.0,scattered clouds
293,Mandalgovi,MN,45.7625,106.2708,51.03,37,0,5.82,clear sky
294,Morondava,MG,-20.2833,44.2833,73.89,87,0,7.9,clear sky
295,Colonia,DE,50.9333,6.95,56.95,85,0,4.61,clear sky
296,Marat,SA,25.0701,45.4615,87.24,14,9,7.87,clear sky
297,Lagos,NG,6.5833,3.75,82.72,90,81,3.31,broken clouds
298,Selfoss,IS,63.9331,-20.9971,42.04,84,43,12.82,scattered clouds
299,Greymouth,NZ,-42.4667,171.2,50.22,71,72,2.95,broken clouds
300,Nadi,FJ,-17.8,177.4167,82.4,74,20,5.75,few clouds
301,La Sarre,CA,48.8002,-79.1996,60.37,43,42,9.69,scattered clouds
302,Crane,US,31.3974,-102.3501,88.79,34,55,13.44,broken clouds
303,Port Lincoln,AU,-34.7333,135.8667,58.64,75,0,10.58,clear sky
304,Mejit,MH,10.2753,170.8646,81.64,81,91,16.15,light rain
305,Maicao,CO,11.3832,-72.2432,84.15,61,32,13.98,scattered clouds
306,Saint-Joseph,RE,-21.3667,55.6167,71.98,78,81,8.9,broken clouds
307,Sinabang,ID,2.4803,96.3801,82.11,85,96,6.33,overcast clouds
308,Argostolion,GR,38.1811,20.489,60.62,86,94,5.97,overcast clouds
309,Rabaul,PG,-4.1967,152.1721,80.85,81,100,6.17,overcast clouds
310,Makakilo City,US,21.3469,-158.0858,82.72,63,0,11.5,clear sky
311,Zaozersk,RU,69.4005,32.4476,38.08,98,99,7.49,overcast clouds
312,Goundam,ML,16.4145,-3.6708,93.63,13,70,5.08,broken clouds
313,Jianshui,CN,23.6363,102.8264,63.37,84,100,3.04,overcast clouds
314,Pacific Grove,US,36.6177,-121.9166,72.55,78,20,11.5,few clouds
315,Rabo De Peixe,PT,37.8,-25.5833,63.91,82,20,6.91,few clouds
316,Bandar-E Genaveh,IR,29.5791,50.517,85.41,36,0,3.15,clear sky
317,Bandarbeyla,SO,9.4942,50.8122,81.54,83,98,14.36,overcast clouds
318,Portland,US,45.5234,-122.6762,87.89,31,20,10.36,few clouds
319,Antofagasta,CL,-23.65,-70.4,63.68,80,1,1.99,clear sky
320,Russkiy,RU,43.0147,131.8642,55.26,88,97,15.66,overcast clouds
321,Kerikeri,NZ,-35.2268,173.9474,63.91,83,7,1.99,clear sky
322,Pechora,RU,65.1472,57.2244,33.96,100,100,3.33,light snow
323,Vorgashor,RU,67.5833,63.95,22.89,95,84,6.04,broken clouds
324,Winnemucca,US,40.973,-117.7357,75.25,16,0,12.66,clear sky
325,Arteche,PH,12.2645,125.4048,80.4,78,70,3.11,broken clouds
326,Qamdo,CN,31.1667,97.2333,27.19,63,100,2.19,overcast clouds
327,Choyr,MN,46.3611,108.3611,50.23,31,16,5.84,few clouds
328,Praia,CV,14.9215,-23.5087,73.94,73,20,17.27,few clouds
329,Cam Ranh,VN,11.9214,109.1591,78.76,83,20,3.44,few clouds
330,Tulun,RU,54.5611,100.5792,38.01,80,63,9.04,broken clouds
331,Prachuap Khiri Khan,TH,12.2167,99.75,73.81,86,97,2.82,overcast clouds
332,Corumba,BR,-19.0092,-57.6533,71.87,60,99,3.67,overcast clouds
333,Ulety,RU,51.3572,112.4849,49.68,28,85,3.65,overcast clouds
334,Lata,PT,40.1629,-8.3327,58.82,86,0,2.26,clear sky
335,Alo,NG,7.4178,6.7371,80.31,82,48,4.74,scattered clouds
336,Howrah,IN,22.5892,88.3103,82.4,89,75,4.61,haze
337,Ancud,CL,-41.8697,-73.8203,54.52,97,100,8.9,overcast clouds
338,Aripuana,BR,-9.1667,-60.6333,77.99,78,79,1.83,broken clouds
339,Peace River,CA,56.2501,-117.286,79.11,22,75,11.5,broken clouds
340,Gnarrenburg,DE,53.3833,9.0,55.83,95,4,7.74,clear sky
341,Nsanje,MW,-16.92,35.262,68.5,78,1,1.01,clear sky
342,Pochaiv,UA,50.0051,25.5118,43.57,79,24,5.79,few clouds
343,Undurkhaan,MN,47.3194,110.6556,51.33,35,32,9.64,scattered clouds
344,Bosaso,SO,11.2842,49.1816,82.8,76,9,4.34,clear sky
345,Sandnessjoen,NO,66.0217,12.6316,46.51,91,40,3.44,scattered clouds
346,Aykhal,RU,66.0,111.5,21.38,91,100,10.67,light snow
347,Puerto Aysen,CL,-45.4,-72.7,51.12,96,100,3.36,overcast clouds
348,Al Jabin,YE,14.704,43.599,61.12,73,11,0.25,few clouds
349,Hermanus,ZA,-34.4187,19.2345,48.79,76,23,17.16,few clouds
350,Manta,EC,-0.95,-80.7333,83.98,70,40,11.5,scattered clouds
351,Hovd,MN,48.0056,91.6419,52.39,44,77,3.4,broken clouds
352,Sao Jose Da Coroa Grande,BR,-8.8978,-35.1478,78.1,78,21,7.52,few clouds
353,Mount Pearl,CA,47.5166,-52.7813,43.84,68,40,9.22,scattered clouds
354,Kalmunai,LK,7.4167,81.8167,79.5,84,100,5.84,overcast clouds
355,Fortuna,US,40.5982,-124.1573,61.93,86,100,11.5,overcast clouds
356,Ust'-Kulom,RU,61.6864,53.6902,43.77,93,100,6.51,overcast clouds
357,Kolokani,ML,13.5728,-8.0339,96.01,20,91,8.34,overcast clouds
358,Mazatlan,MX,23.2167,-106.4167,87.76,59,20,9.22,few clouds
359,Pontianak,ID,-0.0333,109.3333,76.98,94,40,3.44,scattered clouds
360,Xuddur,SO,4.1213,43.8894,74.28,81,6,14.23,clear sky
361,Novyy Urengoy,RU,66.0833,76.6333,1.92,97,29,7.0,scattered clouds
362,Huazhou,CN,21.6333,110.5833,70.18,97,100,6.11,overcast clouds
363,Verkhnevilyuysk,RU,63.4453,120.3167,38.23,62,100,5.12,overcast clouds
364,Auki,SB,-8.7676,160.7034,84.22,72,88,3.09,light rain
365,Turpan,CN,42.9333,89.1667,80.24,14,100,3.4,overcast clouds
366,Fort St. John,CA,56.2499,-120.8529,76.89,19,75,4.61,broken clouds
367,Kireyevsk,RU,53.9336,37.9279,48.15,90,98,9.35,overcast clouds
368,Sikasso,ML,10.9167,-7.0,87.3,41,93,6.06,light rain
369,Vieux-Habitants,GP,16.0589,-61.7659,80.17,73,74,10.85,broken clouds
370,Georgetown,MY,5.4112,100.3354,84.13,89,20,2.3,thunderstorm
371,Olyokminsk,RU,60.3736,120.4264,40.15,59,82,8.37,broken clouds
372,Kostomuksha,RU,64.571,30.5767,35.4,99,90,3.11,overcast clouds
373,Qa'En,IR,33.7265,59.1844,61.88,51,0,5.37,clear sky
374,Nabire,ID,-3.3667,135.4833,80.64,83,78,2.33,broken clouds
375,Shihezi,CN,44.3,86.0333,70.97,31,100,6.33,overcast clouds
376,Qal'Ah-Ye Shahr,AF,35.5473,65.5676,50.13,79,23,2.66,few clouds
377,Keflavik,IS,64.0049,-22.5624,46.31,87,75,20.71,broken clouds
378,Qusmuryn,KZ,52.4503,64.6311,53.91,75,83,8.79,broken clouds
379,Barcelos,PT,41.5388,-8.6151,58.68,78,0,8.14,clear sky
380,Bumba,CD,2.1833,22.4667,71.71,96,91,3.02,light rain
381,Kavaratti,IN,10.5669,72.642,85.53,70,96,7.63,overcast clouds
382,Fisterra,ES,42.9049,-9.2629,56.75,80,0,18.19,clear sky
383,Nadym,RU,65.5333,72.5167,14.72,90,16,12.15,few clouds
384,Fort Mcmurray,CA,56.7268,-111.381,80.19,18,0,11.5,clear sky
385,Okhotsk,RU,59.3833,143.3,34.88,85,100,12.33,overcast clouds
386,Flin Flon,CA,54.7682,-101.865,69.64,19,40,8.05,scattered clouds
387,Kursunlu,TR,40.841,33.2603,49.51,96,100,4.72,overcast clouds
388,Kupang,ID,-10.1667,123.5833,77.58,69,20,8.05,few clouds
389,Vacaria,BR,-28.5122,-50.9339,44.02,90,18,3.8,few clouds
390,Gagliano Del Capo,IT,39.8442,18.3695,60.82,93,25,11.07,scattered clouds
391,Lloydminster,CA,53.2835,-110.0016,71.82,30,75,11.5,broken clouds
392,Kitimat,CA,54.0524,-128.6534,70.18,58,100,3.44,light rain
393,Port Said,EG,31.2565,32.2841,66.18,88,0,8.05,clear sky
394,Chui,UY,-33.6971,-53.4616,54.95,68,60,5.59,broken clouds
395,Posto Fiscal Rolim De Moura,BR,-13.0833,-62.2667,77.16,72,100,2.04,overcast clouds
396,Leua,SK,48.2156,18.6071,49.17,93,100,9.82,light rain
397,Port Shepstone,ZA,-30.7414,30.455,68.41,66,100,10.25,overcast clouds
398,Yarmouth,US,41.7057,-70.2286,75.2,60,40,8.05,scattered clouds
399,East London,ZA,-33.0153,27.9116,61.14,85,100,18.88,moderate rain
400,La Passe,FR,45.5549,-0.8967,54.99,90,76,8.95,broken clouds
401,Dubbo,AU,-32.25,148.6167,53.73,71,100,11.5,overcast clouds
402,Pandan,PH,14.0453,124.1694,80.53,75,43,2.33,scattered clouds
403,Tura,IN,25.5198,90.2201,74.7,46,100,3.98,overcast clouds
404,Song Cau,VN,13.45,109.2167,78.21,91,92,3.11,overcast clouds
405,Bontang,ID,0.1333,117.5,79.47,87,42,3.62,scattered clouds
406,Jiaojiang,CN,28.6803,121.4428,64.99,87,98,3.98,overcast clouds
407,Bairnsdale,AU,-37.8333,147.6167,53.06,97,8,3.04,clear sky
408,Xiamen,CN,24.4798,118.0819,72.25,88,100,2.24,overcast clouds
409,Shaowu,CN,27.3409,117.4831,63.48,83,86,1.03,overcast clouds
410,Dickson,US,36.077,-87.3878,71.31,89,0,11.5,clear sky
411,Papao,PF,-17.75,-149.55,85.68,77,51,21.21,broken clouds
412,Javea,ES,38.7833,0.1667,62.33,81,100,3.0,overcast clouds
413,Mondlo,ZA,-27.983,30.7177,58.62,89,100,3.06,overcast clouds
414,Bhamo,MM,24.2667,97.2333,71.46,98,100,1.79,light rain
415,Yigo Village,GU,13.5361,144.8886,85.75,85,75,9.22,broken clouds
416,Al Bardiyah,LY,31.7561,25.0865,63.18,84,0,8.9,clear sky
417,Marquette,US,46.5333,-87.6335,63.84,71,100,4.9,overcast clouds
418,Ndele,CF,8.4109,20.6473,75.38,80,77,3.42,broken clouds
419,Altai,MN,46.3722,96.2583,45.97,44,34,5.23,scattered clouds
420,Buka,UZ,40.8108,69.1986,66.7,51,22,3.83,few clouds
421,Hastings,GB,50.8552,0.5729,52.92,51,85,20.96,overcast clouds
422,Margate,GB,51.3813,1.3862,51.87,89,96,14.0,overcast clouds
423,Fada,NG,9.5667,8.3,74.07,71,81,0.6,broken clouds
424,Lamu,KE,-2.2717,40.902,77.22,85,45,8.95,light rain
425,Diss,GB,52.3768,1.1091,50.18,95,84,8.99,broken clouds
426,Rosarito,MX,32.3333,-117.0333,72.66,67,0,8.95,clear sky
427,Bandar Lampung,ID,-5.4254,105.258,75.02,97,63,2.26,broken clouds
428,Oamaru,NZ,-45.0784,170.9801,54.37,93,44,6.44,scattered clouds
429,Quellon,CL,-43.1167,-73.6167,55.65,94,100,0.0,light rain
430,Pitimbu,BR,-7.4706,-34.8086,81.19,75,53,9.69,broken clouds
431,Sitka,US,57.0531,-135.33,53.49,71,100,13.8,light rain
432,Pangoa,PE,-12.1167,-73.0,70.54,91,96,1.5,overcast clouds
433,Siguiri,GN,11.6667,-9.5,89.42,32,63,4.68,broken clouds
434,Springbok,ZA,-29.6643,17.8865,46.31,68,0,13.2,clear sky
435,Fort Bragg,US,35.139,-79.006,84.78,36,0,10.36,clear sky
436,Saint-Pierre,RE,-21.3393,55.4781,73.08,64,0,6.91,clear sky
437,Stans,CH,46.9585,8.366,54.68,85,100,3.44,overcast clouds
438,Coronel Dorrego,AR,-38.7187,-61.2873,58.51,64,90,7.31,overcast clouds
439,Cabo San Lucas,MX,22.8909,-109.9124,85.6,52,17,13.42,few clouds
440,Yuzhno-Kurilsk,RU,44.0306,145.8556,48.42,68,1,3.87,clear sky
441,Moyynkum,KZ,44.2914,72.9469,69.75,52,100,9.28,overcast clouds
442,Muriti,TZ,-1.9833,32.9167,73.06,72,80,4.03,light rain
443,Mitu,CO,1.1983,-70.1733,75.49,90,35,1.39,scattered clouds
444,Coyhaique,CL,-45.5752,-72.0662,52.41,71,100,2.3,overcast clouds
445,Wenling,CN,28.3669,121.36,63.7,86,89,3.89,overcast clouds
446,Conceicao Da Barra,BR,-18.5933,-39.7322,71.22,92,90,5.37,overcast clouds
447,Phalia,PK,32.4297,73.5775,83.35,16,59,4.7,broken clouds
448,Mouila,GA,-1.8685,11.0559,75.47,97,98,1.16,light rain
449,Ylitornio,FI,66.3089,23.6773,46.15,82,64,3.13,broken clouds
450,Kapiri Mposhi,ZM,-13.9652,28.6809,55.62,63,0,3.89,clear sky
451,Nacala,MZ,-14.5428,40.6728,73.29,91,36,3.89,scattered clouds
452,Griffith,US,41.5284,-87.4237,70.29,90,100,5.75,very heavy rain
453,Tralee,IE,52.2704,-9.7026,48.45,93,10,1.16,clear sky
454,Khandyga,RU,62.6667,135.6,32.83,59,100,7.29,overcast clouds
455,San Rafael,AR,-34.6177,-68.3301,68.32,36,7,3.42,clear sky
456,Pico Truncado,AR,-46.7949,-67.9573,50.4,41,100,5.03,overcast clouds
457,Daru,PG,-9.0763,143.2092,79.84,88,99,13.11,overcast clouds
458,Dharmavaram,IN,14.4333,77.7167,83.71,65,99,13.44,overcast clouds
459,Nicoya,CR,10.1483,-85.452,89.26,59,81,3.24,broken clouds
460,Moapa Valley,US,36.5805,-114.4703,92.55,11,21,13.2,few clouds
461,Hajo,IN,26.25,91.5333,75.24,94,75,6.91,mist
462,Broome,US,42.2506,-75.833,80.98,29,0,6.91,clear sky
463,Turbat,PK,26.0023,63.044,86.16,36,2,3.27,clear sky
464,Barreirinhas,BR,-2.7469,-42.8264,77.36,88,15,4.68,few clouds
465,Sparta,US,43.9441,-90.8129,63.93,92,40,0.0,light rain
466,Sovetskaya Gavan',RU,48.9723,140.2878,57.78,46,69,5.86,broken clouds
467,Bodaybo,RU,57.8506,114.1933,34.57,90,100,1.12,light snow
468,Birzai,LT,56.2,24.75,51.15,57,81,5.61,broken clouds
469,Shiguai,CN,40.7058,110.2856,52.41,36,69,3.42,broken clouds
470,Hauterive,FR,46.0901,3.4459,54.36,94,81,3.62,broken clouds
471,Tamanrasset,DZ,22.785,5.5228,78.71,12,0,5.75,clear sky
472,Korbach,DE,51.2756,8.873,54.21,89,25,2.82,scattered clouds
473,Opuwo,NA,-18.0607,13.84,69.55,41,78,3.65,broken clouds
474,Chambas,CU,22.1928,-78.9136,79.2,79,89,10.76,overcast clouds
475,Ambanja,MG,-13.6833,48.45,72.09,92,28,3.71,scattered clouds
476,Sharypovo,RU,55.5403,89.2008,31.39,74,98,3.0,overcast clouds
477,Iguape,BR,-24.7081,-47.5553,65.34,78,81,7.61,broken clouds
478,Tamiahua,MX,21.2667,-97.45,85.12,72,3,13.38,clear sky
479,Ocos,GT,14.5094,-92.1933,86.74,67,35,12.37,scattered clouds
480,Salto De Agua,MX,17.6167,-92.3667,105.04,22,8,7.16,clear sky
481,Kosikha,RU,53.3617,84.5822,37.49,66,85,6.38,overcast clouds
482,Mount Hagen,PG,-5.8581,144.2274,61.56,100,75,2.3,fog
483,Prince Rupert,CA,54.3161,-130.3201,57.29,56,100,24.16,light rain
484,Barranca,PE,-10.75,-77.7667,70.45,78,12,8.55,few clouds
485,Laascaanood,SO,8.4774,47.3597,80.49,57,27,10.85,scattered clouds
486,Port Blair,IN,11.6667,92.75,83.64,79,99,25.12,overcast clouds
487,Adoni,IN,15.6333,77.2833,82.47,62,91,14.5,overcast clouds
488,Bitkine,TD,11.9801,18.2138,89.24,35,41,3.4,scattered clouds
489,San Luis De La Loma,MX,17.2706,-100.8939,84.99,65,100,6.73,overcast clouds
490,Ilhabela,BR,-23.7781,-45.3581,66.78,83,93,6.96,overcast clouds
491,Ende,ID,-8.8432,121.6623,76.44,80,80,7.49,broken clouds
492,Yevlakh,AZ,40.6183,47.1501,59.52,78,99,8.57,overcast clouds
493,Woolgoolga,AU,-30.1106,153.2007,60.67,83,6,4.43,clear sky
494,Hampton,US,37.0299,-76.3452,84.25,50,40,14.97,scattered clouds
495,Port Augusta,AU,-32.5,137.7667,57.38,64,0,4.5,clear sky
496,Kanigiri,IN,15.4,79.5167,86.4,54,100,3.76,overcast clouds
497,Mostaganem,DZ,35.9311,0.0892,63.81,81,10,13.94,clear sky
498,Nizhneangarsk,RU,55.7833,109.55,33.33,98,100,6.26,light snow
499,Paramonga,PE,-10.6667,-77.8333,71.1,80,16,9.06,few clouds
500,Saint-Paul,RE,-21.0096,55.2707,75.29,80,82,2.77,broken clouds
501,Walvis Bay,NA,-22.9575,14.5053,59.09,82,52,4.61,broken clouds
502,Sisimiut,GL,66.9395,-53.6735,29.16,76,76,12.64,broken clouds
503,Watertown,US,42.3709,-71.1828,84.22,37,20,13.8,few clouds
504,Cuajinicuilapa,MX,16.4667,-98.4167,88.92,49,82,9.1,broken clouds
505,Hoganas,SE,56.1997,12.558,52.95,59,43,4.0,scattered clouds
506,Itamaraca,BR,-7.7478,-34.8256,82.45,77,28,8.03,scattered clouds
507,Lazaro Cardenas,MX,17.9583,-102.2,84.87,64,90,11.88,overcast clouds
508,Rio Grande,BR,-32.035,-52.0986,64.51,59,65,7.45,broken clouds
509,San Pedro Pochutla,MX,15.7333,-96.4667,92.71,57,25,9.98,light rain
510,Juan Griego,VE,11.0817,-63.9655,86.13,66,44,20.71,scattered clouds
511,Zhukovo,RU,55.0318,36.744,43.57,64,76,4.52,broken clouds
512,Malango,ID,-2.9627,119.9001,67.87,94,97,1.74,overcast clouds
513,Namdrik,MH,5.5994,168.1028,82.85,80,70,12.95,light rain
514,Babol,IR,36.5513,52.679,62.98,86,37,2.93,scattered clouds
515,La Romana,DO,18.4273,-68.9728,86.36,58,75,13.8,broken clouds
516,Faya-Largeau,TD,17.9257,19.1043,86.27,18,18,14.79,few clouds
517,Langepas,RU,61.2544,75.2124,26.94,56,0,2.53,clear sky
518,Champerico,GT,14.3,-91.9167,81.14,66,51,12.95,broken clouds
519,Celestun,MX,20.8667,-90.4,86.4,66,31,16.22,scattered clouds
520,Pathein,MM,16.7833,94.7333,77.74,92,100,8.3,overcast clouds
521,Grand Falls-Windsor,CA,48.9332,-55.6649,49.48,56,5,9.84,clear sky
522,Rexburg,US,43.826,-111.7897,69.31,23,40,12.66,scattered clouds
523,Grahamstown,ZA,-33.3042,26.5328,50.95,94,100,9.13,light rain
524,Igarka,RU,67.4667,86.5833,6.19,93,41,9.37,scattered clouds
525,Monte Patria,CL,-30.6919,-70.9467,71.64,39,45,2.46,scattered clouds
526,Jutai,BR,-5.1833,-68.9,74.75,97,55,2.51,broken clouds
527,Negombo,LK,7.2083,79.8358,82.45,83,75,13.8,broken clouds
528,Mary,TM,37.0,62.5,74.43,28,0,7.96,clear sky
529,Road Town,VG,18.4167,-64.6167,77.04,69,40,9.22,moderate rain
530,Nelson,NZ,-41.2833,173.2833,53.29,91,1,1.79,clear sky
531,Puerto Deseado,AR,-47.7503,-65.8938,48.11,66,83,9.28,broken clouds
532,Sabang,ID,5.8933,95.3214,82.8,78,24,5.39,few clouds
533,Tofol,FM,5.3248,163.0078,82.18,89,75,3.44,light rain
534,Torghay,KZ,49.6339,63.4981,60.87,86,97,8.25,overcast clouds
535,Iwon-Up,KP,40.3231,128.6553,58.57,73,18,1.14,few clouds
536,Mount Sterling,US,38.0565,-83.9433,70.14,82,100,10.36,overcast clouds
537,Neustadt (Hessen),DE,50.85,9.1167,54.54,93,31,3.98,scattered clouds
538,Jianguang,CN,28.1938,115.7836,65.66,82,100,4.43,overcast clouds
539,Urumqi,CN,43.801,87.6005,70.75,25,0,8.95,clear sky
540,Al Muwayh,SA,22.4333,41.7583,85.14,16,13,8.41,few clouds
541,Babenhausen,DE,49.9667,8.9578,54.82,87,99,3.38,overcast clouds
542,Langsa,ID,4.4683,97.9683,74.95,96,100,2.95,overcast clouds
543,Pesqueira,BR,-8.3578,-36.6964,70.5,91,87,7.29,overcast clouds
544,Boise,US,43.6135,-116.2035,78.94,31,0,5.75,clear sky
545,Pemangkat,ID,1.1667,108.9667,78.89,87,30,2.66,scattered clouds
546,Kangding,CN,30.0513,101.9603,40.51,88,99,6.2,overcast clouds
547,Lospalos,TL,-8.5186,127.0025,71.24,72,76,7.34,broken clouds
548,Jayapura,ID,-2.5333,140.7,83.59,78,32,0.96,scattered clouds
549,Matoury,GF,4.8483,-52.3317,76.96,94,75,0.0,broken clouds
550,Xining,CN,36.6167,101.7667,44.92,53,8,1.81,clear sky
551,Midvagur,FO,62.0511,-7.1939,49.03,93,100,11.5,light intensity drizzle rain
552,Volchansk,RU,59.9378,60.081,39.78,69,35,4.85,scattered clouds
553,Canavieiras,BR,-15.675,-38.9472,74.55,85,50,4.43,scattered clouds
554,Dryden,CA,49.7833,-92.7503,75.49,29,20,8.05,few clouds
555,Bouar,CF,5.934,15.596,67.26,93,98,1.07,overcast clouds
556,Fort-Shevchenko,KZ,44.5086,50.263,58.77,70,94,9.46,overcast clouds
557,Banda Aceh,ID,5.5577,95.3222,79.95,83,39,4.81,scattered clouds
558,Jiangkou,CN,25.4872,119.1986,68.76,85,100,3.11,overcast clouds
559,Cadale,SO,2.7603,46.3222,80.69,86,64,15.57,broken clouds
560,Fuling,CN,29.7022,107.3919,67.03,75,100,2.35,overcast clouds
561,Bocaiuva,BR,-17.1078,-43.815,80.31,58,72,3.13,broken clouds
562,Pimampiro,EC,0.4,-77.9667,64.6,84,100,2.21,light rain
563,Gori,GE,41.9842,44.1158,56.14,97,100,9.55,overcast clouds
564,Laguna,US,38.421,-121.4238,87.08,34,0,8.05,clear sky
565,Illizi,DZ,26.4833,8.4667,85.8,14,96,10.29,overcast clouds
